{"type":"FeatureCollection", "features": [
{"type":"Feature","geometry":null,"properties":{"1985":1107.1,"1989":1267.1,"1994":988.8,"1999":485.8,"2004":300.9,"2009":221.4,"2014":195.7,"id":1,"name":"New York City","lat":40.7127837,"lon":-74.0059413}},
{"type":"Feature","geometry":null,"properties":{"1985":876.8,"1989":902.6,"1994":868,"1999":394.8,"2004":367,"2009":317.4,"2014":203.5,"id":2,"name":"Los Angeles","lat":34.0522342,"lon":-118.2436849}},
{"type":"Feature","geometry":null,"properties":{"1985":896.7,"1989":1057.1,"1994":1210.5,"1999":716.4,"2004":552,"2009":557.4,"2014":359.7,"id":3,"name":"Chicago","lat":41.8781136,"lon":-87.6297982}},
{"type":"Feature","geometry":null,"properties":{"1985":549.1,"1989":573.1,"1994":567.7,"1999":460.7,"2004":498.3,"2009":499.9,"2014":458.8,"id":4,"name":"Houston","lat":29.7604267,"lon":-95.3698028}},
{"type":"Feature","geometry":null,"properties":{"1985":272.2,"1989":277.6,"1994":320.7,"1999":311.5,"2004":260.5,"2009":235.2,"2014":193,"id":5,"name":"Phoenix","lat":33.4483771,"lon":-112.0740373}},
{"type":"Feature","geometry":null,"properties":{"1985":572,"1989":619.4,"1994":814.2,"1999":773.6,"2004":657.4,"2009":583.9,"2014":447.1,"id":6,"name":"Philadelphia","lat":39.9525839,"lon":-75.1652215}},
{"type":"Feature","geometry":null,"properties":{"1985":1098.5,"1989":1593.5,"1994":1299.4,"1999":990.1,"2004":724.5,"2009":492.9,"2014":512.6,"id":7,"name":"Atlanta","lat":33.7489954,"lon":-84.3879824}},
{"type":"Feature","geometry":null,"properties":{"1985":309.8,"1989":326.3,"1994":329,"1999":146.3,"2004":128.8,"2009":144.9,"2014":96.3,"id":8,"name":"San Diego","lat":32.715738,"lon":-117.1610838}},
{"type":"Feature","geometry":null,"properties":{"1985":606.6,"1989":947.7,"1994":666,"1999":582.5,"2004":607.7,"2009":426.3,"2014":303.1,"id":9,"name":"Dallas","lat":32.7766642,"lon":-96.7969879}},
{"type":"Feature","geometry":null,"properties":{"1985":696.8,"1989":666.5,"1994":893.2,"1999":459.2,"2004":399.9,"2009":422.7,"2014":379.2,"id":10,"name":"San Fransico","lat":37.7749295,"lon":-122.4194155}},
{"type":"Feature","geometry":null,"properties":{"1985":264.7,"1989":217.3,"1994":301.4,"1999":178.8,"2004":205.8,"2009":184,"2014":96.6,"id":11,"name":"Austin","lat":30.267153,"lon":-97.7430608}},
{"type":"Feature","geometry":null,"properties":{"1985":448.1,"1989":601.8,"1994":499.7,"1999":242.4,"2004":281,"2009":291.2,"2014":165.8,"id":12,"name":"Jacksonville","lat":30.3321838,"lon":-81.655651}},
{"type":"Feature","geometry":null,"properties":{"1985":574.1,"1989":475.9,"1994":469.4,"1999":302.4,"2004":275.8,"2009":297.4,"2014":236.2,"id":13,"name":"Seattle","lat":47.6062095,"lon":-122.3320708}},
{"type":"Feature","geometry":null,"properties":{"1985":373.6,"1989":256.2,"1994":335.4,"1999":203.7,"2004":255.8,"2009":154,"2014":163.5,"id":14,"name":"Denver","lat":39.7392358,"lon":-104.990251}},
{"type":"Feature","geometry":null,"properties":{"1985":1087.4,"1989":1011.2,"1994":762.5,"1999":442.3,"2004":418.6,"2009":364.8,"2014":256.7,"id":15,"name":"Boston","lat":42.3600825,"lon":-71.0588801}}
]}