{"type":"FeatureCollection","crs":{"type":"name","properties":{"name":"EPSG:4326"}},"features":[{"type":"Feature","id":0,"geometry":{"type":"Point","coordinates":[-74.005941300000003,40.712783700000003]},"properties":{"FID":0,"ID":1,"Name":"New York City","latitude":40.712783700000003,"longitude":-74.005941300000003,"1985":1107.0999999999999,"1989":1267.0999999999999,"1994":988.79999999999995,"1999":485.80000000000001,"2004":300.89999999999998,"2009":221.40000000000001,"2014":195.69999999999999}},{"type":"Feature","id":1,"geometry":{"type":"Point","coordinates":[-118.24368490000001,34.052234200000001]},"properties":{"FID":1,"ID":2,"Name":"Los Angeles","latitude":34.052234200000001,"longitude":-118.24368490000001,"1985":876.79999999999995,"1989":902.60000000000002,"1994":868,"1999":394.80000000000001,"2004":367,"2009":317.39999999999998,"2014":203.5}},{"type":"Feature","id":2,"geometry":{"type":"Point","coordinates":[-87.629798199999996,41.878113599999999]},"properties":{"FID":2,"ID":3,"Name":"Chicago","latitude":41.878113599999999,"longitude":-87.629798199999996,"1985":896.70000000000005,"1989":1057.0999999999999,"1994":1210.5,"1999":716.39999999999998,"2004":552,"2009":557.39999999999998,"2014":359.69999999999999}},{"type":"Feature","id":3,"geometry":{"type":"Point","coordinates":[-95.369802800000002,29.7604267]},"properties":{"FID":3,"ID":4,"Name":"Houston","latitude":29.7604267,"longitude":-95.369802800000002,"1985":549.10000000000002,"1989":573.10000000000002,"1994":567.70000000000005,"1999":460.69999999999999,"2004":498.30000000000001,"2009":499.89999999999998,"2014":458.80000000000001}},{"type":"Feature","id":4,"geometry":{"type":"Point","coordinates":[-112.0740373,33.448377100000002]},"properties":{"FID":4,"ID":5,"Name":"Phoenix","latitude":33.448377100000002,"longitude":-112.0740373,"1985":272.19999999999999,"1989":277.60000000000002,"1994":320.69999999999999,"1999":311.5,"2004":260.5,"2009":235.19999999999999,"2014":193}},{"type":"Feature","id":5,"geometry":{"type":"Point","coordinates":[-75.165221500000001,39.9525839]},"properties":{"FID":5,"ID":6,"Name":"Philadelphia","latitude":39.9525839,"longitude":-75.165221500000001,"1985":572,"1989":619.39999999999998,"1994":814.20000000000005,"1999":773.60000000000002,"2004":657.39999999999998,"2009":583.89999999999998,"2014":447.10000000000002}},{"type":"Feature","id":6,"geometry":{"type":"Point","coordinates":[-84.387982399999999,33.748995399999998]},"properties":{"FID":6,"ID":7,"Name":"Atlanta","latitude":33.748995399999998,"longitude":-84.387982399999999,"1985":1098.5,"1989":1593.5,"1994":1299.4000000000001,"1999":990.10000000000002,"2004":724.5,"2009":492.89999999999998,"2014":512.60000000000002}},{"type":"Feature","id":7,"geometry":{"type":"Point","coordinates":[-117.1610838,32.715738000000002]},"properties":{"FID":7,"ID":8,"Name":"San Diego","latitude":32.715738000000002,"longitude":-117.1610838,"1985":309.80000000000001,"1989":326.30000000000001,"1994":329,"1999":146.30000000000001,"2004":128.80000000000001,"2009":144.90000000000001,"2014":96.299999999999997}},{"type":"Feature","id":8,"geometry":{"type":"Point","coordinates":[-96.796987900000005,32.776664199999999]},"properties":{"FID":8,"ID":9,"Name":"Dallas","latitude":32.776664199999999,"longitude":-96.796987900000005,"1985":606.60000000000002,"1989":947.70000000000005,"1994":666,"1999":582.5,"2004":607.70000000000005,"2009":426.30000000000001,"2014":303.10000000000002}},{"type":"Feature","id":9,"geometry":{"type":"Point","coordinates":[-122.4194155,37.774929499999999]},"properties":{"FID":9,"ID":10,"Name":"San Fransico","latitude":37.774929499999999,"longitude":-122.4194155,"1985":696.79999999999995,"1989":666.5,"1994":893.20000000000005,"1999":459.19999999999999,"2004":399.89999999999998,"2009":422.69999999999999,"2014":379.19999999999999}},{"type":"Feature","id":10,"geometry":{"type":"Point","coordinates":[-97.743060799999995,30.267153]},"properties":{"FID":10,"ID":11,"Name":"Austin","latitude":30.267153,"longitude":-97.743060799999995,"1985":264.69999999999999,"1989":217.30000000000001,"1994":301.39999999999998,"1999":178.80000000000001,"2004":205.80000000000001,"2009":184,"2014":96.599999999999994}},{"type":"Feature","id":11,"geometry":{"type":"Point","coordinates":[-81.655651000000006,30.332183799999999]},"properties":{"FID":11,"ID":12,"Name":"Jacksonville","latitude":30.332183799999999,"longitude":-81.655651000000006,"1985":448.10000000000002,"1989":601.79999999999995,"1994":499.69999999999999,"1999":242.40000000000001,"2004":281,"2009":291.19999999999999,"2014":165.80000000000001}},{"type":"Feature","id":12,"geometry":{"type":"Point","coordinates":[-122.3320708,47.606209499999999]},"properties":{"FID":12,"ID":13,"Name":"Seattle","latitude":47.606209499999999,"longitude":-122.3320708,"1985":574.10000000000002,"1989":475.89999999999998,"1994":469.39999999999998,"1999":302.39999999999998,"2004":275.80000000000001,"2009":297.39999999999998,"2014":236.19999999999999}},{"type":"Feature","id":13,"geometry":{"type":"Point","coordinates":[-104.990251,39.739235800000003]},"properties":{"FID":13,"ID":14,"Name":"Denver","latitude":39.739235800000003,"longitude":-104.990251,"1985":373.60000000000002,"1989":256.19999999999999,"1994":335.39999999999998,"1999":203.69999999999999,"2004":255.80000000000001,"2009":154,"2014":163.5}},{"type":"Feature","id":14,"geometry":{"type":"Point","coordinates":[-71.058880099999996,42.360082499999997]},"properties":{"FID":14,"ID":15,"Name":"Boston","latitude":42.360082499999997,"longitude":-71.058880099999996,"1985":1087.4000000000001,"1989":1011.2,"1994":762.5,"1999":442.30000000000001,"2004":418.60000000000002,"2009":364.80000000000001,"2014":256.69999999999999}}]}